[{"date":"2018-03-20","parks":[{"hours":"9:00 AM to 11:00 PM","name":"Magic Kingdom Park","extraMagic":""},{"hours":"9:00 AM to 9:00 PM","name":"Epcot","extraMagic":"9:00 PM to 11:00 PM"},{"hours":"9:00 AM to 9:00 PM","name":"Disney's Hollywood Studios"},{"hours":"8:00 AM to 9:30 PM","name":"Disney's Animal Kingdom Theme Park","extraMagic":""},{"hours":"10:00 AM to 3:45 PM","name":"Disney's Typhoon Lagoon Water Park"},{"hours":"10:00 AM to 3:45 PM","name":"Disney's Blizzard Beach Water Park"},{"hours":"10:00 AM to 12:00 AM","name":"Disney Springs"},{"hours":"7:00 AM to 10:30 PM","name":"ESPN Wide World of Sports Complex"}]},{"date":"2018-03-21","parks":[{"hours":"9:00 AM to 11:00 PM","name":"Magic Kingdom Park","extraMagic":"11:00 PM to 1:00 AM"},{"hours":"9:00 AM to 9:00 PM","name":"Epcot","extraMagic":""},{"hours":"9:00 AM to 9:00 PM","name":"Disney's Hollywood Studios"},{"hours":"8:00 AM to 8:30 PM","name":"Disney's Animal Kingdom Theme Park","extraMagic":""},{"hours":"10:00 AM to 5:00 PM","name":"Disney's Typhoon Lagoon Water Park"},{"hours":"","name":""},{"hours":"10:00 AM to 12:00 AM","name":"Disney Springs"},{"hours":"7:00 AM to 10:30 PM","name":"ESPN Wide World of Sports Complex"}]},{"date":"2018-03-22","parks":[{"hours":"9:00 AM to 11:00 PM","name":"Magic Kingdom Park","extraMagic":""},{"hours":"9:00 AM to 9:00 PM","name":"Epcot","extraMagic":"8:00 AM to 9:00 AM"},{"hours":"9:00 AM to 9:00 PM","name":"Disney's Hollywood Studios"},{"hours":"8:00 AM to 9:30 PM","name":"Disney's Animal Kingdom Theme Park","extraMagic":""},{"hours":"","name":""},{"hours":"","name":""},{"hours":"10:00 AM to 12:00 AM","name":"Disney Springs"},{"hours":"7:00 AM to 8:30 PM","name":"ESPN Wide World of Sports Complex"}]},{"date":"2018-03-23","parks":[{"hours":"8:00 AM to 11:00 PM","name":"Magic Kingdom Park","extraMagic":"7:00 AM to 8:00 AM"},{"hours":"9:00 AM to 9:00 PM","name":"Epcot","extraMagic":""},{"hours":"9:00 AM to 9:00 PM","name":"Disney's Hollywood Studios"},{"hours":"8:00 AM to 9:30 PM","name":"Disney's Animal Kingdom Theme Park","extraMagic":""},{"hours":"10:00 AM to 5:00 PM","name":"Disney's Typhoon Lagoon Water Park"},{"hours":"10:00 AM to 5:00 PM","name":"Disney's Blizzard Beach Water Park"},{"hours":"10:00 AM to 12:00 AM","name":"Disney Springs"},{"hours":"7:00 AM to 10:00 PM","name":"ESPN Wide World of Sports Complex"}]},{"date":"2018-03-24","parks":[{"hours":"8:00 AM to 11:00 PM","name":"Magic Kingdom Park","extraMagic":""},{"hours":"9:00 AM to 9:00 PM","name":"Epcot","extraMagic":""},{"hours":"9:00 AM to 9:00 PM","name":"Disney's Hollywood Studios"},{"hours":"8:00 AM to 10:00 PM","name":"Disney's Animal Kingdom Theme Park","extraMagic":"7:00 AM to 8:00 AM"},{"hours":"10:00 AM to 5:00 PM","name":"Disney's Typhoon Lagoon Water Park"},{"hours":"10:00 AM to 5:00 PM","name":"Disney's Blizzard Beach Water Park"},{"hours":"10:00 AM to 12:00 AM","name":"Disney Springs"},{"hours":"7:00 AM to 11:00 PM","name":"ESPN Wide World of Sports Complex"}]},{"date":"2018-03-25","parks":[{"hours":"9:00 AM to 10:00 PM","name":"Magic Kingdom Park","extraMagic":""},{"hours":"9:00 AM to 9:00 PM","name":"Epcot","extraMagic":""},{"hours":"9:00 AM to 9:00 PM","name":"Disney's Hollywood Studios","extraMagic":"8:00 AM to 9:00 AM"},{"hours":"8:00 AM to 11:00 PM","name":"Disney's Animal Kingdom Theme Park","extraMagic":""},{"hours":"10:00 AM to 5:00 PM","name":"Disney's Typhoon Lagoon Water Park"},{"hours":"10:00 AM to 5:00 PM","name":"Disney's Blizzard Beach Water Park"},{"hours":"10:00 AM to 12:00 AM","name":"Disney Springs"},{"hours":"7:00 AM to 11:00 PM","name":"ESPN Wide World of Sports Complex"}]},{"date":"2018-03-26","parks":[{"hours":"8:00 AM to 12:00 AM","name":"Magic Kingdom Park","extraMagic":""},{"hours":"9:00 AM to 9:00 PM","name":"Epcot","extraMagic":""},{"hours":"9:00 AM to 9:00 PM","name":"Disney's Hollywood Studios","extraMagic":""},{"hours":"8:00 AM to 11:00 PM","name":"Disney's Animal Kingdom Theme Park","extraMagic":"7:00 AM to 8:00 AM"},{"hours":"10:00 AM to 5:00 PM","name":"Disney's Typhoon Lagoon Water Park"},{"hours":"10:00 AM to 5:00 PM","name":"Disney's Blizzard Beach Water Park"},{"hours":"10:00 AM to 12:00 AM","name":"Disney Springs"},{"hours":"7:00 AM to 11:00 PM","name":"ESPN Wide World of Sports Complex"}]},{"date":"2018-03-27","parks":[{"hours":"8:00 AM to 12:00 AM","name":"Magic Kingdom Park","extraMagic":""},{"hours":"9:00 AM to 9:00 PM","name":"Epcot","extraMagic":"9:00 PM to 11:00 PM"},{"hours":"9:00 AM to 9:00 PM","name":"Disney's Hollywood Studios","extraMagic":""},{"hours":"8:00 AM to 11:00 PM","name":"Disney's Animal Kingdom Theme Park","extraMagic":""},{"hours":"10:00 AM to 5:00 PM","name":"Disney's Typhoon Lagoon Water Park"},{"hours":"10:00 AM to 5:00 PM","name":"Disney's Blizzard Beach Water Park"},{"hours":"10:00 AM to 12:00 AM","name":"Disney Springs"},{"hours":"7:00 AM to 11:00 PM","name":"ESPN Wide World of Sports Complex"}]},{"date":"2018-03-28","parks":[{"hours":"8:00 AM to 12:00 AM","name":"Magic Kingdom Park","extraMagic":"12:00 AM to 2:00 AM"},{"hours":"9:00 AM to 9:00 PM","name":"Epcot","extraMagic":""},{"hours":"9:00 AM to 9:00 PM","name":"Disney's Hollywood Studios","extraMagic":""},{"hours":"8:00 AM to 11:00 PM","name":"Disney's Animal Kingdom Theme Park","extraMagic":""},{"hours":"10:00 AM to 5:00 PM","name":"Disney's Typhoon Lagoon Water Park"},{"hours":"10:00 AM to 5:00 PM","name":"Disney's Blizzard Beach Water Park"},{"hours":"10:00 AM to 12:00 AM","name":"Disney Springs"},{"hours":"7:00 AM to 11:00 PM","name":"ESPN Wide World of Sports Complex"}]},{"date":"2018-03-29","parks":[{"hours":"8:00 AM to 12:00 AM","name":"Magic Kingdom Park","extraMagic":""},{"hours":"9:00 AM to 9:00 PM","name":"Epcot","extraMagic":"8:00 AM to 9:00 AM"},{"hours":"9:00 AM to 9:00 PM","name":"Disney's Hollywood Studios","extraMagic":""},{"hours":"8:00 AM to 11:00 PM","name":"Disney's Animal Kingdom Theme Park","extraMagic":""},{"hours":"10:00 AM to 5:00 PM","name":"Disney's Typhoon Lagoon Water Park"},{"hours":"10:00 AM to 5:00 PM","name":"Disney's Blizzard Beach Water Park"},{"hours":"10:00 AM to 12:00 AM","name":"Disney Springs"},{"hours":"7:00 AM to 10:00 PM","name":"ESPN Wide World of Sports Complex"}]},{"date":"2018-03-30","parks":[{"hours":"8:00 AM to 12:00 AM","name":"Magic Kingdom Park","extraMagic":"7:00 AM to 8:00 AM"},{"hours":"9:00 AM to 9:00 PM","name":"Epcot","extraMagic":""},{"hours":"9:00 AM to 9:00 PM","name":"Disney's Hollywood Studios","extraMagic":""},{"hours":"8:00 AM to 11:00 PM","name":"Disney's Animal Kingdom Theme Park","extraMagic":""},{"hours":"10:00 AM to 5:00 PM","name":"Disney's Typhoon Lagoon Water Park"},{"hours":"10:00 AM to 5:00 PM","name":"Disney's Blizzard Beach Water Park"},{"hours":"10:00 AM to 12:00 AM","name":"Disney Springs"},{"hours":"7:00 AM to 11:30 PM","name":"ESPN Wide World of Sports Complex"}]},{"date":"2018-03-31","parks":[{"hours":"8:00 AM to 11:00 PM","name":"Magic Kingdom Park","extraMagic":""},{"hours":"9:00 AM to 9:00 PM","name":"Epcot","extraMagic":""},{"hours":"9:00 AM to 9:00 PM","name":"Disney's Hollywood Studios","extraMagic":""},{"hours":"8:00 AM to 11:00 PM","name":"Disney's Animal Kingdom Theme Park","extraMagic":"7:00 AM to 8:00 AM"},{"hours":"10:00 AM to 5:00 PM","name":"Disney's Typhoon Lagoon Water Park"},{"hours":"10:00 AM to 5:00 PM","name":"Disney's Blizzard Beach Water Park"},{"hours":"10:00 AM to 12:00 AM","name":"Disney Springs"},{"hours":"7:00 AM to 11:30 PM","name":"ESPN Wide World of Sports Complex"}]}]
